[
    {
        "name": "Andhra Pradesh",
        "color": "#FF5733",
        "url": "https://example.com/AndhraPradesh",
        "zone": 9,
        "capital": {
            "name": "Amaravati",
            "coordinates": [
                80.2185,
                16.5193
            ]
        }
    },
    {
        "name": "Arunachal Pradesh",
        "color": "#e7f900",
        "url": "https://example.com/ArunachalPradesh",
        "zone": 8,
        "capital": {
            "name": "Itanagar",
            "coordinates": [
                93.6177,
                27.1024
            ]
        }
    },
    {
        "name": "Assam",
        "color": "#fe9e0c",
        "url": "https://example.com/Assam",
        "zone": 8,
        "capital": {
            "name": "Dispur",
            "coordinates": [
                91.7882,
                26.1445
            ]
        }
    },
    {
        "name": "Bihar",
        "color": "#db3a31",
        "url": "https://example.com/Bihar",
        "zone": 6,
        "capital": {
            "name": "Patna",
            "coordinates": [
                85.324,
                25.5941
            ]
        }
    },
    {
        "name": "Chhattisgarh",
        "color": "#ef5a56",
        "url": "https://example.com/Chhattisgarh",
        "zone": 4,
        "capital": {
            "name": "Raipur",
            "coordinates": [
                81.6338,
                21.2514
            ]
        }
    },
    {
        "name": "Daman and Diu",
        "color": "#F5DEB3",
        "url": "https://example.com/Daman and Diu",
        "zone": 3,
        "capital": {
            "name": "Daman",
            "coordinates": [
                72.8397,
                20.4278
            ]
        }
    },
    {
        "name": "Delhi",
        "color": "#ff0000",
        "url": "https://example.com/Delhi",
        "zone": 2,
        "capital": {
            "name": "New Delhi",
            "coordinates": [
                77.2314,
                28.6139
            ]
        }
    },
    {
        "name": "Goa",
        "color": "#1ABC9C",
        "url": "https://example.com/Goa",
        "zone": 5,
        "capital": {
            "name": "Panaji",
            "coordinates": [
                73.8122,
                15.4909
            ]
        }
    },
    {
        "name": "Gujarat",
        "color": "#bd3030",
        "url": "https://example.com/Gujarat",
        "zone": 3,
        "capital": {
            "name": "Gandhinagar",
            "coordinates": [
                72.6331,
                23.2156
            ]
        }
    },
    {
        "name": "Haryana",
        "color": "#85cb8e",
        "url": "https://example.com/Haryana",
        "zone": 2,
        "capital": {
            "name": "Chandigarh",
            "coordinates": [
                76.7781,
                30.7333
            ]
        }
    },
    {
        "name": "Himachal Pradesh",
        "color": "#8E44AD",
        "url": "https://example.com/HimachalPradesh",
        "zone": 1,
        "capital": {
            "name": "Shimla",
            "coordinates": [
                77.1714,
                31.1048
            ]
        }
    },
    {
        "name": "Jharkhand",
        "color": "#f9ff3f",
        "url": "https://example.com/Jharkhand",
        "zone": 6,
        "capital": {
            "name": "Ranchi",
            "coordinates": [
                85.3343,
                23.3567
            ]
        }
    },
    {
        "name": "Jammu and Kashmir",
        "color": "#feb918",
        "url": "https://example.com/JammuAndKashmir",
        "zone": 1,
        "capital": {
            "name": "Srinagar",
            "coordinates": [
                74.7973,
                34.0837
            ]
        }
    },
    {
        "name": "Karnataka",
        "color": "#bb5701",
        "url": "https://example.com/Karnataka",
        "zone": 9,
        "capital": {
            "name": "Bengaluru",
            "coordinates": [
                77.5946,
                12.9716
            ]
        }
    },
    {
        "name": "Kerala",
        "color": "#2ECC71",
        "url": "https://example.com/Kerala",
        "zone": 10,
        "capital": {
            "name": "Thiruvananthapuram",
            "coordinates": [
                76.9490,
                8.5241
            ]
        }
    },
    {
        "name": "Ladakh",
        "color": "#85cb8e",
        "url": "https://example.com/Ladakh",
        "zone": 1,
        "capital": {
            "name": "Leh",
            "coordinates": [
                77.5789,
                34.1526
            ]
        }
    },
    {
        "name": "Madhya Pradesh",
        "color": "#8b4fc1",
        "url": "https://example.com/MadhyaPradesh",
        "zone": 4,
        "capital": {
            "name": "Bhopal",
            "coordinates": [
                77.4377,
                23.2599
            ]
        }
    },
    {
        "name": "Maharashtra",
        "color": "#cac452",
        "url": "https://example.com/Maharashtra",
        "zone": 5,
        "capital": {
            "name": "Mumbai",
            "coordinates": [
                72.8777,
                19.0760
            ]
        }
    },
    {
        "name": "Manipur",
        "color": "#e7f900",
        "url": "https://example.com/Manipur",
        "zone": 8,
        "capital": {
            "name": "Imphal",
            "coordinates": [
                93.9368,
                24.8170
            ]
        }
    },
    {
        "name": "Meghalaya",
        "color": "#8E44AD",
        "url": "https://example.com/Meghalaya",
        "zone": 8,
        "capital": {
            "name": "Shillong",
            "coordinates": [
                91.5822,
                25.5788
            ]
        }
    },
    {
        "name": "Mizoram",
        "color": "#9B59B6",
        "url": "https://example.com/Mizoram",
        "zone": 8,
        "capital": {
            "name": "Aizawl",
            "coordinates": [
                92.7276,
                23.1645
            ]
        }
    },
    {
        "name": "Nagaland",
        "color": "#F1C40F",
        "url": "https://example.com/Nagaland",
        "zone": 8,
        "capital": {
            "name": "Kohima",
            "coordinates": [
                94.1134,
                25.6706
            ]
        }
    },
    {
        "name": "Odisha",
        "color": "#6fd85b",
        "url": "https://example.com/Odisha",
        "zone": 7,
        "capital": {
            "name": "Bhubaneswar",
            "coordinates": [
                85.8189,
                20.2961
            ]
        }
    },
    {
        "name": "Punjab",
        "color": "#a361e0",
        "url": "https://example.com/Punjab",
        "zone": 2,
        "capital": {
            "name": "Chandigarh",
            "coordinates": [
                76.7781,
                30.7333
            ]
        }
    },
    {
        "name": "Rajasthan",
        "color": "#e2ee21",
        "url": "https://example.com/Rajasthan",
        "zone": 3,
        "capital": {
            "name": "Jaipur",
            "coordinates": [
                75.7873,
                26.9124
            ]
        }
    },
    {
        "name": "Sikkim",
        "color": "#e7f900",
        "url": "https://example.com/Sikkim",
        "zone": 6,
        "capital": {
            "name": "Gangtok",
            "coordinates": [
                88.6139,
                27.3389
            ]
        }
    },
    {
        "name": "Tamil Nadu",
        "color": "#58d067",
        "url": "https://example.com/TamilNadu",
        "zone": 10,
        "capital": {
            "name": "Chennai",
            "coordinates": [
                80.2785,
                13.0827
            ]
        }
    },
    {
        "name": "Telangana",
        "color": "#9355d0",
        "url": "https://example.com/Telangana",
        "zone": 9,
        "capital": {
            "name": "Hyderabad",
            "coordinates": [
                78.4744,
                17.3850
            ]
        }
    },
    {
        "name": "Tripura",
        "color": "#3357FF",
        "url": "https://example.com/Tripura",
        "zone": 8,
        "capital": {
            "name": "Agartala",
            "coordinates": [
                91.2806,
                23.8315
            ]
        }
    },
    {
        "name": "Uttar Pradesh",
        "color": "#fea300",
        "url": "https://example.com/UttarPradesh",
        "zone": 6,
        "capital": {
            "name": "Lucknow",
            "coordinates": [
                80.9462,
                26.8467
            ]
        }
    },
    {
        "name": "Uttarakhand",
        "color": "#bd3030",
        "url": "https://example.com/Uttarakhand",
        "zone": 2,
        "capital": {
            "name": "Dehradun",
            "coordinates": [
                78.0844,
                30.3165
            ]
        }
    },
    {
        "name": "West Bengal",
        "color": "#965ac6",
        "url": "https://example.com/WestBengal",
        "zone": 7,
        "capital": {
            "name": "Kolkata",
            "coordinates": [
                88.3639,
                22.5726
            ]
        }
    }
]